[
  {"id":"4735", "name":"Wakefern", "address":"900 MADISON AVE.", "city":"HOBOKEN", "state":"NJ", "zip":"07030", "lat":"40.748883", "lng":"-74.03625399999999"},
  {"id":"4104", "name":"Target", "address":"100 14th St", "city":"Jersey City", "state":"NJ", "zip":"07310", "lat":"40.7328133", "lng":"-74.03596770000001"},
  {"id":"4565", "name":"Wakefern", "address":"3147 KENNEDY BLVD.", "city":"NORTH BERGEN", "state":"NJ", "zip":"07047", "lat":"40.7741463", "lng":"-74.03467419999998"},
  {"id":"4085", "name":"Target", "address":"7101 Tonnelle Ave", "city":"North Bergen", "state":"NJ", "zip":"07047", "lat":"40.7692041", "lng":"-74.0445421"},
  {"id":"4598", "name":"Wakefern", "address":"400 MARIN BLVD.", "city":"JERSEY CITY", "state":"NJ", "zip":"07302", "lat":"40.72295769999999", "lng":"-74.0398841"},
  {"id":"6961", "name":"Walmart", "address":"400 PARK PL", "city":"SECAUCUS", "state":"NJ", "zip":"07094", "lat":"40.7928665", "lng":"-74.04213279999999"},
  {"id":"6950", "name":"Walmart", "address":"2100 88TH ST", "city":"NORTH BERGEN", "state":"NJ", "zip":"07047", "lat":"40.812985", "lng":"-74.015333"},
  {"id":"3780", "name":"Target", "address":"543 River Rd", "city":"Edgewater", "state":"NJ", "zip":"07020", "lat":"40.8153509", "lng":"-73.9823394"},
  {"id":"3302", "name":"Target", "address":"517 E 117th Street Suite 201", "city":"New York", "state":"NY", "zip":"10035", "lat":"40.79557380000001", "lng":"-73.93168700000001"},
  {"id":"4074", "name":"Target", "address":"139 Flatbush Ave", "city":"Brooklyn", "state":"NY", "zip":"11217", "lat":"40.6843688", "lng":"-73.97763789999999"},
  {"id":"3366", "name":"Target", "address":"700 Exterior St", "city":"Bronx", "state":"NY", "zip":"10451", "lat":"40.82371330000001", "lng":"-73.92975960000001"},
  {"id":"3828", "name":"Target", "address":"8801 Queens Blvd", "city":"Elmhurst", "state":"NY", "zip":"11373", "lat":"40.7353643", "lng":"-73.87491749999998"},
  {"id":"4610", "name":"Wakefern", "address":"201 ROOSEVELT AVE.", "city":"PALISADES PARK", "state":"NJ", "zip":"07650", "lat":"40.8512358", "lng":"-74.00465429999997"},
  {"id":"4713", "name":"Wakefern", "address":"540 NEW YORK AVE.", "city":"LYNDHURST", "state":"NJ", "zip":"07071", "lat":"40.8126859", "lng":"-74.11840380000001"},
  {"id":"4587", "name":"Wakefern", "address":"500 SOUTH RIVER STREET", "city":"HACKENSACK", "state":"NJ", "zip":"07601", "lat":"40.863675", "lng":"-74.034989"},
  {"id":"6928", "name":"Walmart", "address":"500 BAYONNE CROSSING", "city":"BAYONNE", "state":"NJ", "zip":"07002", "lat":"40.6628154", "lng":"-74.10657349999997"},
  {"id":"3349", "name":"Target", "address":"4024 College Point Blvd Ste F600", "city":"Flushing", "state":"NY", "zip":"11354", "lat":"40.7578149", "lng":"-73.83468579999999"},
  {"id":"4684", "name":"Wakefern", "address":"1080 McDONALD AVE. AT AVE. I", "city":"BROOKLYN", "state":"NY", "zip":"11230", "lat":"40.6282778", "lng":"-73.976808"},
  {"id":"4499", "name":"Wakefern", "address":"583-9 AVENUE C & W. 26th ST.", "city":"BAYONNE", "state":"NJ", "zip":"07002", "lat":"40.667631", "lng":"-74.1184776"},
  {"id":"4324", "name":"Target", "address":"1598 Flatbush Ave", "city":"Brooklyn", "state":"NY", "zip":"11210", "lat":"40.63155099999999", "lng":"-73.94650519999999"}]